[
    {
        "name": "Hamilton Mausoleum",
        "lat": 55.78214,
        "lng": -4.03428,
        "image": "https://upload.wikimedia.org/wikipedia/commons/e/eb/The_golden_glow_of_the_Hamilton_mausoleum_on_a_December_afternoon._-_geograph.org.uk_-_175523.jpg",
        "ir":"ham.wav"
    },
    {
        "name": "Maes Howe",
        "lat": 58.996525,
        "lng": -3.188173,
        "image": "https://www.maeshowe.co.uk/images/maeshowefisheyeint204p.jpg",
        "ir":"maes.wav"
    },
    {
        "name": "Tvísöngur Sound Sculpture",
        "lat": 65.267807,
        "lng": -13.981864,
        "image": "https://visitseydisfjordur.com/wp-content/uploads/2019/07/ljosm-alla-borgthors-5-1-700x700.jpg",
        "ir":"maes.wav"
    },
    {
        "name": "R1 Nuclear Reactor Hall",
        "lat":59.3499986,
        "lng": 18.06749973,
        "image": "https://upload.wikimedia.org/wikipedia/commons/thumb/b/ba/2021_KTH_R1%2C_image_1.jpg/500px-2021_KTH_R1%2C_image_1.jpg",
        "ir":"maes.wav"
    },
    {
        "name": "Spokane Woman’s Club",
        "lat":47.6473,
        "lng": -117.4329,
        "image": "https://webfiles.york.ac.uk/OPENAIR/IRs/spokane-womans-club/images/swc.jpg",
        "ir":"maes.wav"
    },
    {
        "name": "St. George’s Episcopal Church",
        "lat":38.3028,
        "lng": -77.4598,
        "image": "https://webfiles.york.ac.uk/OPENAIR/IRs/st-georges-episcopal-church/images/img_0757_1.jpg",
        "ir":"maes.wav"
    },
    {
        "name": "Newgrange",
        "lat":53.6947,
        "lng": -6.4756,
        "image": "https://webfiles.york.ac.uk/OPENAIR/IRs/newgrange/images/20190506_065329.jpg",
        "ir":"maes.wav"
    },
    {
        "name": "Koli National Park",
        "lat":63.0878,
        "lng": 29.8277,
        "image": "https://webfiles.york.ac.uk/OPENAIR/IRs/koli-national-park-winter/images/site_3_c.jpg",
        "ir":"maes.wav"
    },
    {
        "name": "Saint Lawrence's Church",
        "lat":50.9212,
        "lng": 4.9541,
        "image": "https://webfiles.york.ac.uk/OPENAIR/IRs/saint-lawrence-church-molenbeek-wersbeek-belgium/images/sint_laurentius_kerkraamcolorkl.jpg",
        "ir":"maes.wav"
    },
    {
        "name": "Concert Hall, Sydney Opera House",
        "lat":-33.8570442199707,
        "lng": 151.21514892578125,
        "image": "https://images.adsttc.com/media/images/5e41/cdf3/3312/fd25/4b00/0455/large_jpg/1.jpg?1581370860",
        "ir":"maes.wav"
    }
]